[
  {
    "name": "sum",
    "location": {
      "lat": 41.3954,
      "lng": 2.162
    }
  },
  {
    "name": "win",
    "location": {
      "lat": 41.3917,
      "lng": 2.1649
    }
  },
  {
    "name": "summer",
    "location": {
      "lat": 41.3773,
      "lng": 2.1585
    }
  },
  {
    "name": "winter",
    "location": {
      "lat": 41.3797,
      "lng": 2.1682
    }
  },
  {
    "name": "spring",
    "location": {
      "lat": 41.4055,
      "lng": 2.1915
    }
  }
]
